[[{"SiteId":"4203","SiteName":"福誠高中(原為福誠國中)","SiteEngName":"Fucheng Junior High School","County":"高雄市","Township":"鳳山區","UgwDistName":"嘉南平原","TWD97Lon":"120.3230620","TWD97Lat":"22.5895420","TWD97TM2X":"180396.36","TWD97TM2Y":"2498991.05","SiteAddress":"高雄市鳳山區五甲三路176號","StatusOfUse":"啟用"},{"SiteId":"4204","SiteName":"誠正國小","SiteEngName":"Chengjheng Elementary School","County":"高雄市","Township":"鳳山區","UgwDistName":"嘉南平原","TWD97Lon":"120.3641180","TWD97Lat":"22.6157680","TWD97TM2X":"184630.30","TWD97TM2Y":"2501876.53","SiteAddress":"高雄市鳳山區黃埔新村國校巷78號","StatusOfUse":"啟用"},{"SiteId":"4210","SiteName":"蚵寮國小(高雄市)","SiteEngName":"Hao Liao Elementary School  (Kaohsiung)","County":"高雄市","Township":"梓官區","UgwDistName":"嘉南平原","TWD97Lon":"120.2488888","TWD97Lat":"22.7334120","TWD97TM2X":"172849.95","TWD97TM2Y":"2514959.00","SiteAddress":"高雄市梓官區禮蚵里光明路177號","StatusOfUse":"啟用"},{"SiteId":"4211","SiteName":"鳳山厝農場","SiteEngName":"Fong Shan Cuo Farm","County":"高雄市","Township":"大社區","UgwDistName":"嘉南平原","TWD97Lon":"120.3567450","TWD97Lat":"22.7541140","TWD97TM2X":"183938.66","TWD97TM2Y":"2517199.32","SiteAddress":"高雄市大社區民權路134號","StatusOfUse":"啟用"},{"SiteId":"4212","SiteName":"岡山國中","SiteEngName":"Gangshan Junior High School","County":"高雄市","Township":"岡山區","UgwDistName":"嘉南平原","TWD97Lon":"120.3024800","TWD97Lat":"22.7905970","TWD97TM2X":"178384.57","TWD97TM2Y":"2521264.51","SiteAddress":"高雄市岡山區岡燕路238號","StatusOfUse":"啟用"},{"SiteId":"4213","SiteName":"維新國小","SiteEngName":"Weisin Elementary School","County":"高雄市","Township":"永安區","UgwDistName":"嘉南平原","TWD97Lon":"120.2475830","TWD97Lat":"22.8041580","TWD97TM2X":"172755.63","TWD97TM2Y":"2522793.84","SiteAddress":"高雄市永安區維新路光明九巷69之10號","StatusOfUse":"啟用"},{"SiteId":"4214","SiteName":"路竹高中(原為路竹國中)","SiteEngName":"Lujhu Junior High School","County":"高雄市","Township":"路竹區","UgwDistName":"嘉南平原","TWD97Lon":"120.2535070","TWD97Lat":"22.8564180","TWD97TM2X":"173393.08","TWD97TM2Y":"2528577.88","SiteAddress":"高雄市路竹區中華路292號","StatusOfUse":"啟用"},{"SiteId":"4216","SiteName":"阿蓮國小","SiteEngName":"Alian Elementary School","County":"高雄市","Township":"阿蓮區","UgwDistName":"嘉南平原","TWD97Lon":"120.3278910","TWD97Lat":"22.8836090","TWD97TM2X":"181040.54","TWD97TM2Y":"2531552.21","SiteAddress":"高雄市阿蓮區民族路163號","StatusOfUse":"啟用"},{"SiteId":"4258","SiteName":"文山高中(原為文山國中)","SiteEngName":"Wunshan Junior High School","County":"高雄市","Township":"鳥松區","UgwDistName":"嘉南平原","TWD97Lon":"120.3529140","TWD97Lat":"22.6478910","TWD97TM2X":"183493.94","TWD97TM2Y":"2505438.56","SiteAddress":"高雄市鳥松區大碑路31號","StatusOfUse":"啟用"},{"SiteId":"4259","SiteName":"仁武高中(原為仁武中學)","SiteEngName":"Renwu Junior High School","County":"高雄市","Township":"仁武區","UgwDistName":"嘉南平原","TWD97Lon":"120.3553490","TWD97Lat":"22.7011850","TWD97TM2X":"183769.81","TWD97TM2Y":"2511338.90","SiteAddress":"高雄市仁武區文武里仁林路20號","StatusOfUse":"啟用"},{"SiteId":"4261","SiteName":"高苑工商","SiteEngName":"Kao Yuan Senior High School of Technology & Commerce","County":"高雄市","Township":"橋頭區","UgwDistName":"嘉南平原","TWD97Lon":"120.2908240","TWD97Lat":"22.7588120","TWD97TM2X":"177170.92","TWD97TM2Y":"2517750.46","SiteAddress":"高雄市橋頭區東林里芋寮路1號","StatusOfUse":"啟用"},{"SiteId":"4262","SiteName":"興糖國小","SiteEngName":"Singtang Elementary School","County":"高雄市","Township":"橋頭區","UgwDistName":"嘉南平原","TWD97Lon":"120.3180310","TWD97Lat":"22.7509850","TWD97TM2X":"179961.06","TWD97TM2Y":"2516870.62","SiteAddress":"高雄市橋頭區興糖路19巷1號","StatusOfUse":"啟用"},{"SiteId":"4263","SiteName":"岡山文化中心(為原縣立文化中心)","SiteEngName":"County Cultural Center","County":"高雄市","Township":"岡山區","UgwDistName":"嘉南平原","TWD97Lon":"120.2993030","TWD97Lat":"22.7838730","TWD97TM2X":"178054.85","TWD97TM2Y":"2520521.46","SiteAddress":"高雄市岡山區岡山南路42號","StatusOfUse":"啟用"},{"SiteId":"4264","SiteName":"竹滬國小","SiteEngName":"Jhuhu Elementary School","County":"高雄市","Township":"路竹區","UgwDistName":"嘉南平原","TWD97Lon":"120.2305020","TWD97Lat":"22.8630510","TWD97TM2X":"171035.99","TWD97TM2Y":"2529324.54","SiteAddress":"高雄市路竹區竹滬里成功路2號","StatusOfUse":"啟用"},{"SiteId":"4265","SiteName":"嘉興國小","SiteEngName":"Jiasing Elementary School","County":"高雄市","Township":"岡山區","UgwDistName":"嘉南平原","TWD97Lon":"120.3054629","TWD97Lat":"22.8214907","TWD97TM2X":"178706.92","TWD97TM2Y":"2524684.11","SiteAddress":"高雄市岡山區嘉興里嘉興路322號","StatusOfUse":"啟用"},{"SiteId":"4266","SiteName":"復安國小","SiteEngName":"Fuan Elementary School","County":"高雄市","Township":"阿蓮區","UgwDistName":"嘉南平原","TWD97Lon":"120.3231760","TWD97Lat":"22.8495850","TWD97TM2X":"180539.46","TWD97TM2Y":"2527786.72","SiteAddress":"高雄市阿蓮區復安路167號","StatusOfUse":"啟用"},{"SiteId":"4267","SiteName":"大湖國小","SiteEngName":"Dahu Elementary School","County":"高雄市","Township":"湖內區","UgwDistName":"嘉南平原","TWD97Lon":"120.2445710","TWD97Lat":"22.8873510","TWD97TM2X":"172493.57","TWD97TM2Y":"2532008.00","SiteAddress":"高雄市湖內區大湖里民權路2號","StatusOfUse":"啟用"},{"SiteId":"4268","SiteName":"中路國小","SiteEngName":"Jhonglu Elementary School","County":"高雄市","Township":"阿蓮區","UgwDistName":"嘉南平原","TWD97Lon":"120.2987770","TWD97Lat":"22.8948390","TWD97TM2X":"178059.21","TWD97TM2Y":"2532809.71","SiteAddress":"高雄市阿蓮區中路里272號","StatusOfUse":"啟用"},{"SiteId":"4447","SiteName":"美濃國中","SiteEngName":"Meinong Elementary School","County":"高雄市","Township":"美濃區","UgwDistName":"屏東平原","TWD97Lon":"120.5439360","TWD97Lat":"22.8944140","TWD97TM2X":"203211.22","TWD97TM2Y":"2532663.82","SiteAddress":"高雄市美濃區中正路一段191號","StatusOfUse":"啟用"},{"SiteId":"4448","SiteName":"溪洲國小(高雄市)","SiteEngName":"Sijhou Elementary School","County":"高雄市","Township":"旗山區","UgwDistName":"屏東平原","TWD97Lon":"120.4647340","TWD97Lat":"22.8474650","TWD97TM2X":"195066.65","TWD97TM2Y":"2527492.29","SiteAddress":"高雄市旗山區旗南二路126號","StatusOfUse":"啟用"},{"SiteId":"4458","SiteName":"溪寮國小","SiteEngName":"Shliao Elementary School","County":"高雄市","Township":"大寮區","UgwDistName":"屏東平原","TWD97Lon":"120.4202330","TWD97Lat":"22.6308300","TWD97TM2X":"190405.65","TWD97TM2Y":"2503520.84","SiteAddress":"高雄市大寮區溪寮里溪寮路69號","StatusOfUse":"啟用"},{"SiteId":"4461","SiteName":"潮寮國小","SiteEngName":"Chaoliao Elementary School","County":"高雄市","Township":"大寮區","UgwDistName":"屏東平原","TWD97Lon":"120.4249960","TWD97Lat":"22.5647190","TWD97TM2X":"190867.02","TWD97TM2Y":"2496198.38","SiteAddress":"高雄市大寮區潮寮里潮寮路61號","StatusOfUse":"啟用"},{"SiteId":"4465","SiteName":"中芸國小","SiteEngName":"Jhongyun Elementary School","County":"高雄市","Township":"林園區","UgwDistName":"屏東平原","TWD97Lon":"120.3957300","TWD97Lat":"22.4882210","TWD97TM2X":"187823.03","TWD97TM2Y":"2487739.59","SiteAddress":"高雄市林園區中芸里中芸路1號","StatusOfUse":"啟用"},{"SiteId":"4649","SiteName":"後勁國中(原為和平國中)","SiteEngName":"Heping Junior High School","County":"高雄市","Township":"楠梓區","UgwDistName":"嘉南平原","TWD97Lon":"120.3157590","TWD97Lat":"22.7223830","TWD97TM2X":"179713.10","TWD97TM2Y":"2513704.45","SiteAddress":"高雄市楠梓區加昌路180號","StatusOfUse":"啟用"},{"SiteId":"4651","SiteName":"成功國小(高雄市)","SiteEngName":"Cheng Gong Elementary School","County":"高雄市","Township":"苓雅區","UgwDistName":"嘉南平原","TWD97Lon":"120.2967160","TWD97Lat":"22.6136830","TWD97TM2X":"177699.94","TWD97TM2Y":"2501676.79","SiteAddress":"高雄市苓雅區華新街59號","StatusOfUse":"啟用"},{"SiteId":"4652","SiteName":"中油小港航空站","SiteEngName":"CPC, Siaogang Airport","County":"高雄市","Township":"小港區","UgwDistName":"嘉南平原","TWD97Lon":"120.3394620","TWD97Lat":"22.5689000","TWD97TM2X":"182072.56","TWD97TM2Y":"2496697.75","SiteAddress":"高雄市小港區中山四路31號","StatusOfUse":"啟用"},{"SiteId":"4653","SiteName":"電信局大林浦傳達室","SiteEngName":"Dalin Telecom Communication Center","County":"高雄市","Township":"小港區","UgwDistName":"嘉南平原","TWD97Lon":"120.3568780","TWD97Lat":"22.5274420","TWD97TM2X":"183843.86","TWD97TM2Y":"2492099.22","SiteAddress":"高雄市小港區中利路37號","StatusOfUse":"啟用"},{"SiteId":"4678","SiteName":"小港國小","SiteEngName":"Dagang Elementary School","County":"高雄市","Township":"小港區","UgwDistName":"嘉南平原","TWD97Lon":"120.3353560","TWD97Lat":"22.5619760","TWD97TM2X":"181646.89","TWD97TM2Y":"2495932.91","SiteAddress":"高雄市小港區平和路 1 號","StatusOfUse":"啟用"},{"SiteId":"4680","SiteName":"新莊國小","SiteEngName":"Sinjhuang Elementary School","County":"高雄市","Township":"左營區","UgwDistName":"嘉南平原","TWD97Lon":"120.3090730","TWD97Lat":"22.6691880","TWD97TM2X":"178998.86","TWD97TM2Y":"2507817.12","SiteAddress":"高雄市左營區自由三路1號","StatusOfUse":"啟用"},{"SiteId":"4681","SiteName":"明德國小","SiteEngName":"Mingde Elementary School","County":"高雄市","Township":"左營區","UgwDistName":"嘉南平原","TWD97Lon":"120.2899300","TWD97Lat":"22.6880430","TWD97TM2X":"177041.59","TWD97TM2Y":"2509914.29","SiteAddress":"高雄市左營區自立新村362號","StatusOfUse":"啟用"},{"SiteId":"4682","SiteName":"中洲國小","SiteEngName":"Jhongjhou Elementary School","County":"高雄市","Township":"旗津區","UgwDistName":"嘉南平原","TWD97Lon":"120.2951850","TWD97Lat":"22.5767470","TWD97TM2X":"177523.21","TWD97TM2Y":"2497587.49","SiteAddress":"高雄市旗津區旗津二路275號","StatusOfUse":"啟用"},{"SiteId":"4684","SiteName":"鼓山高中","SiteEngName":"Gushan High School","County":"高雄市","Township":"鼓山區","UgwDistName":"嘉南平原","TWD97Lon":"120.2740910","TWD97Lat":"22.6516040","TWD97TM2X":"175394.40","TWD97TM2Y":"2505887.10","SiteAddress":"高雄市鼓山區明德路2號","StatusOfUse":"啟用"},{"SiteId":"4685","SiteName":"大同國小(高雄市)","SiteEngName":"Datong Elementary School","County":"高雄市","Township":"新興區","UgwDistName":"嘉南平原","TWD97Lon":"120.2995320","TWD97Lat":"22.6271150","TWD97TM2X":"177996.44","TWD97TM2Y":"2503162.80","SiteAddress":"高雄市新興區大同一路231號","StatusOfUse":"啟用"},{"SiteId":"4687","SiteName":"大樹國小","SiteEngName":"Dashu Elementary School","County":"高雄市","Township":"大樹區","UgwDistName":"屏東平原","TWD97Lon":"120.4339650","TWD97Lat":"22.6887540","TWD97TM2X":"191841.61","TWD97TM2Y":"2509929.45","SiteAddress":"高雄市大樹區中正一路249號","StatusOfUse":"啟用"},{"SiteId":"4688","SiteName":"永安工業區","SiteEngName":"Yunan Industry Park","County":"高雄市","Township":"永安區","UgwDistName":"嘉南平原","TWD97Lon":"120.2483310","TWD97Lat":"22.8130390","TWD97TM2X":"172837.43","TWD97TM2Y":"2523776.90","SiteAddress":"高雄市永安區維新里維新路","StatusOfUse":"啟用"},{"SiteId":"4689","SiteName":"砂崙國小","SiteEngName":"Shalun Elementary School","County":"高雄市","Township":"茄萣區","UgwDistName":"嘉南平原","TWD97Lon":"120.1810640","TWD97Lat":"22.9131220","TWD97TM2X":"165993.37","TWD97TM2Y":"2534896.69","SiteAddress":"高雄市茄萣區萬福里文化路81號","StatusOfUse":"啟用"},{"SiteId":"4693","SiteName":"六龜中學(原為六龜高中)","SiteEngName":"Liouguei Junior High School","County":"高雄市","Township":"六龜區","UgwDistName":"屏東平原","TWD97Lon":"120.6355950","TWD97Lat":"22.9928510","TWD97TM2X":"212641.88","TWD97TM2Y":"2543537.92","SiteAddress":"高雄市六龜區義寶里光復路212號","StatusOfUse":"啟用"},{"SiteId":"4694","SiteName":"吉洋水利工作站","SiteEngName":"Jiyang Water Resouce Station","County":"高雄市","Township":"美濃區","UgwDistName":"屏東平原","TWD97Lon":"120.5363750","TWD97Lat":"22.8560300","TWD97TM2X":"202422.13","TWD97TM2Y":"2528415.84","SiteAddress":"高雄市美濃區吉東里中正路3段361號","StatusOfUse":"啟用"},{"SiteId":"4695","SiteName":"吉東國小","SiteEngName":"Jidong Elementary School","County":"高雄市","Township":"美濃區","UgwDistName":"屏東平原","TWD97Lon":"120.5464680","TWD97Lat":"22.8529930","TWD97TM2X":"203456.87","TWD97TM2Y":"2528076.32","SiteAddress":"高雄市美濃區吉東里吉頂路19號","StatusOfUse":"啟用"},{"SiteId":"4696","SiteName":"中庄國中","SiteEngName":"Jhongjhuang Junior High School","County":"高雄市","Township":"大寮區","UgwDistName":"屏東平原","TWD97Lon":"120.4001750","TWD97Lat":"22.6371350","TWD97TM2X":"188346.65","TWD97TM2Y":"2504227.17","SiteAddress":"高雄市大寮區中庄里光明路三段1437號","StatusOfUse":"啟用"},{"SiteId":"4745","SiteName":"二苓國小","SiteEngName":"Erling Elementary School","County":"高雄市","Township":"小港區","UgwDistName":"嘉南平原","TWD97Lon":"120.3531435","TWD97Lat":"22.5642314","TWD97TM2X":"183477.32","TWD97TM2Y":"2496174.62","SiteAddress":"高雄市小港區坪頂村立群路6號","StatusOfUse":"啟用"},{"SiteId":"4777","SiteName":"林園國小","SiteEngName":"Linyuan Elementary School","County":"高雄市","Township":"林園區","UgwDistName":"屏東平原","TWD97Lon":"120.3862490","TWD97Lat":"22.5094390","TWD97TM2X":"186857.07","TWD97TM2Y":"2490093.03","SiteAddress":"高雄市林園區忠孝西路20號","StatusOfUse":"啟用"},{"SiteId":"4786","SiteName":"月美國小","SiteEngName":"Yue Mei Elementary Schoo","County":"高雄市","Township":"杉林區","UgwDistName":"屏東平原","TWD97Lon":"120.5357129","TWD97Lat":"22.9587731","TWD97TM2X":"202390.07","TWD97TM2Y":"2539793.22","SiteAddress":"高雄市杉林區月眉里清水路象寮巷39號","StatusOfUse":"啟用"},{"SiteId":"4903","SiteName":"中正國小(高雄市)","SiteEngName":"Zhongzheng Elementary Sc","County":"高雄市","Township":"苓雅區","UgwDistName":"嘉南平原","TWD97Lon":"120.3334330","TWD97Lat":"22.6303590","TWD97TM2X":"181482.97","TWD97TM2Y":"2503506.02","SiteAddress":"高雄市苓雅區輔仁路100號","StatusOfUse":"啟用"},{"SiteId":"4920","SiteName":"龍山國小(103年設)","SiteEngName":"Longshan Elementary School","County":"高雄市","Township":"美濃區","UgwDistName":"嘉南平原","TWD97Lon":"120.5564400","TWD97Lat":"22.8648360","TWD97TM2X":"204484.19","TWD97TM2Y":"2529384.62","SiteAddress":"高雄市美濃區龍山里龍山街62號","StatusOfUse":"啟用"},{"SiteId":"4921","SiteName":"廣興國小(103年設)","SiteEngName":"Guangsing Elementary School","County":"高雄市","Township":"美濃區","UgwDistName":"嘉南平原","TWD97Lon":"120.5672270","TWD97Lat":"22.9185390","TWD97TM2X":"205608.59","TWD97TM2Y":"2535328.06","SiteAddress":"高雄市美濃區興隆里廣興街124號","StatusOfUse":"啟用"}]]